{
"type": "FeatureCollection",
"name": "Tampa_School2",
"crs": { "type": "name", "properties": { "name": "urn:ogc:def:crs:OGC:1.3:CRS84" } },
"features": [
{ "type": "Feature", "properties": { "OBJECTID": 1, "GRADE": "6-8", "TYPE": "M", "MAGNET": null, "NAME": "ADAMS MIDDLE", "ADDR": "10201 N Boulevard", "CITY": "TAMPA", "ZIPCODE": "33612", "PHONE": "975-7665", "FAX": "632-6889", "GlobalID": "0d149218-c564-4f5a-b513-01fb3d54b6cb" }, "geometry": { "type": "Point", "coordinates": [ -82.466662959507318, 28.042428224754769 ] } },
{ "type": "Feature", "properties": { "OBJECTID": 3, "GRADE": "K-5", "TYPE": "E", "MAGNET": null, "NAME": "ALEXANDER ELEMENTARY", "ADDR": "5602 N Lois Ave", "CITY": "TAMPA", "ZIPCODE": "33614", "PHONE": "872-5395", "FAX": "356-1121", "GlobalID": "a670ceb6-0ec7-46df-8213-5a60d0ad9514" }, "geometry": { "type": "Point", "coordinates": [ -82.514080380140683, 27.998022769796286 ] } },
{ "type": "Feature", "properties": { "OBJECTID": 4, "GRADE": "K-5", "TYPE": "E", "MAGNET": null, "NAME": "ANDERSON ELEMENTARY", "ADDR": "3910 W Fair Oaks Ave", "CITY": "TAMPA", "ZIPCODE": "33611", "PHONE": "272-3075", "FAX": "276-5919", "GlobalID": "f91991d9-bd61-46a3-bcb2-ad74933f8535" }, "geometry": { "type": "Point", "coordinates": [ -82.509277758816282, 27.899901134864727 ] } },
{ "type": "Feature", "properties": { "OBJECTID": 6, "GRADE": "K-5", "TYPE": "E", "MAGNET": null, "NAME": "BALLAST POINT ELEMENTARY", "ADDR": "2802 W Ballast Point Blvd", "CITY": "TAMPA", "ZIPCODE": "33611", "PHONE": "272-3070", "FAX": "276-5923", "GlobalID": "7ac31f55-78ca-4e22-8422-4219ff1d1bbc" }, "geometry": { "type": "Point", "coordinates": [ -82.487908479584632, 27.888773554664237 ] } },
{ "type": "Feature", "properties": { "OBJECTID": 10, "GRADE": "6-8", "TYPE": "M", "MAGNET": null, "NAME": "BENITO MIDDLE", "ADDR": "10101 Cross Creek Blvd", "CITY": "TAMPA", "ZIPCODE": "33647", "PHONE": "631-4694", "FAX": "631-4706", "GlobalID": "3dd5df54-0da3-4f4f-aab4-942abd10ef42" }, "geometry": { "type": "Point", "coordinates": [ -82.324463951393781, 28.140989900484808 ] } },
{ "type": "Feature", "properties": { "OBJECTID": 13, "GRADE": "9-12", "TYPE": "H", "MAGNET": "M", "NAME": "BLAKE HIGH", "ADDR": "1701 N Boulevard", "CITY": "TAMPA", "ZIPCODE": "33607", "PHONE": "272-3422", "FAX": "272-3715", "GlobalID": "cf41d22c-f1a3-4e28-9248-14e9551e78aa" }, "geometry": { "type": "Point", "coordinates": [ -82.466365043471967, 27.958099109191561 ] } },
{ "type": "Feature", "properties": { "OBJECTID": 18, "GRADE": "K-5", "TYPE": "E", "MAGNET": null, "NAME": "N.B. BROWARD ELEMENTARY", "ADDR": "400 W Osborne Ave", "CITY": "TAMPA", "ZIPCODE": "33603", "PHONE": "276-5592", "FAX": "276-5887", "GlobalID": "0d83bfc0-2af7-43d5-8694-1651bf14f9d8" }, "geometry": { "type": "Point", "coordinates": [ -82.464510896934129, 27.987936182935464 ] } },
{ "type": "Feature", "properties": { "OBJECTID": 26, "GRADE": "K-5", "TYPE": "E", "MAGNET": null, "NAME": "CAHOON ELEMENTARY", "ADDR": "2312 E Yukon St", "CITY": "TAMPA", "ZIPCODE": "33604", "PHONE": "975-7647", "FAX": "975-7651", "GlobalID": "2660f702-ac7f-44a0-ac53-2fde2636d224" }, "geometry": { "type": "Point", "coordinates": [ -82.432619714850887, 28.029621635502735 ] } },
{ "type": "Feature", "properties": { "OBJECTID": 29, "GRADE": "9-12", "TYPE": "H", "MAGNET": null, "NAME": "CHAMBERLAIN HIGH", "ADDR": "9401 N Boulevard", "CITY": "TAMPA", "ZIPCODE": "33612", "PHONE": "975-7677", "FAX": "975-7687", "GlobalID": "285d00a1-f74c-48d4-9a4c-167bd1ca44fe" }, "geometry": { "type": "Point", "coordinates": [ -82.465850389183288, 28.03491466404839 ] } },
{ "type": "Feature", "properties": { "OBJECTID": 30, "GRADE": "K-5", "TYPE": "E", "MAGNET": null, "NAME": "CHIARAMONTE ELEMENTARY", "ADDR": "6001 S Himes Ave", "CITY": "TAMPA", "ZIPCODE": "33611", "PHONE": "272-3066", "FAX": "272-3284", "GlobalID": "be449e3a-06ae-4adf-b42b-7d85aa256fb0" }, "geometry": { "type": "Point", "coordinates": [ -82.503131169741579, 27.882512214419179 ] } },
{ "type": "Feature", "properties": { "OBJECTID": 31, "GRADE": "K-5", "TYPE": "E", "MAGNET": null, "NAME": "CHILES ELEMENTARY", "ADDR": "16541 Tampa Palms Blvd W", "CITY": "TAMPA", "ZIPCODE": "33647", "PHONE": "558-5422", "FAX": "558-5426", "GlobalID": "877aa5af-0fbd-46ea-9959-957bdaeae826" }, "geometry": { "type": "Point", "coordinates": [ -82.392326045374716, 28.113556816860363 ] } },
{ "type": "Feature", "properties": { "OBJECTID": 35, "GRADE": "K-5", "TYPE": "E", "MAGNET": null, "NAME": "CLARK ELEMENTARY", "ADDR": "19002 Wood Sage Dr", "CITY": "TAMPA", "ZIPCODE": "33647", "PHONE": "631-4333", "FAX": "631-4349", "GlobalID": "acc8be4c-639c-4a1f-9a53-d113b34560fe" }, "geometry": { "type": "Point", "coordinates": [ -82.364717236986138, 28.151933555881271 ] } },
{ "type": "Feature", "properties": { "OBJECTID": 37, "GRADE": "K-5", "TYPE": "E", "MAGNET": null, "NAME": "CLEVELAND ELEMENTARY", "ADDR": "723 E Hamilton Ave", "CITY": "TAMPA", "ZIPCODE": "33604", "PHONE": "276-5583", "FAX": "276-5586", "GlobalID": "7fda6b05-3d7b-49a1-b97e-d7bbe09856a2" }, "geometry": { "type": "Point", "coordinates": [ -82.452766906862323, 28.013956906568453 ] } },
{ "type": "Feature", "properties": { "OBJECTID": 38, "GRADE": "6-8", "TYPE": "M", "MAGNET": null, "NAME": "JOHN A. COLEMAN MIDDLE", "ADDR": "1724 S Manhattan Ave", "CITY": "TAMPA", "ZIPCODE": "33629", "PHONE": "872-5335", "FAX": "872-5338", "GlobalID": "93928949-7e9b-4d10-b810-8d2230ce7c41" }, "geometry": { "type": "Point", "coordinates": [ -82.517568442535548, 27.927559251237739 ] } },
{ "type": "Feature", "properties": { "OBJECTID": 47, "GRADE": "K-5", "TYPE": "E", "MAGNET": null, "NAME": "DESOTO ELEMENTARY", "ADDR": "2618 Corrine St", "CITY": "TAMPA", "ZIPCODE": "33605", "PHONE": "276-5779", "FAX": "233-2475", "GlobalID": "5850bcc2-1de9-4cd8-b2ca-b80ee76acbaf" }, "geometry": { "type": "Point", "coordinates": [ -82.429210574461749, 27.948648952685666 ] } },
{ "type": "Feature", "properties": { "OBJECTID": 52, "GRADE": "K-5", "TYPE": "E", "MAGNET": "M", "NAME": "DUNBAR ELEMENTARY", "ADDR": "1730 Union St", "CITY": "TAMPA", "ZIPCODE": "33607", "PHONE": "276-5677", "FAX": "272-2254", "GlobalID": "22771e9b-d5bc-42dd-8f7c-61cb9b44f7aa" }, "geometry": { "type": "Point", "coordinates": [ -82.477808719137713, 27.957433349817531 ] } },
{ "type": "Feature", "properties": { "OBJECTID": 55, "GRADE": "K-5", "TYPE": "E", "MAGNET": null, "NAME": "EDISON ELEMENTARY", "ADDR": "1607 E Curtis St", "CITY": "TAMPA", "ZIPCODE": "33610", "PHONE": "276-5579", "FAX": "276-5582", "GlobalID": "63280b27-65e3-4c6a-a397-490e63a12240" }, "geometry": { "type": "Point", "coordinates": [ -82.44153550112506, 27.987527566933512 ] } },
{ "type": "Feature", "properties": { "OBJECTID": 60, "GRADE": "6-8", "TYPE": "M", "MAGNET": "M", "NAME": "FERRELL MIDDLE MAGNET", "ADDR": "4302 N 24th St", "CITY": "TAMPA", "ZIPCODE": "33610", "PHONE": "276-5608", "FAX": "276-5615", "GlobalID": "5fa040bd-f730-4c77-accc-512dd6ffd972" }, "geometry": { "type": "Point", "coordinates": [ -82.433107507686543, 27.984201433450107 ] } },
{ "type": "Feature", "properties": { "OBJECTID": 63, "GRADE": "K-5", "TYPE": "E", "MAGNET": null, "NAME": "FOREST HILLS ELEMENTARY", "ADDR": "10112 N Ola Ave", "CITY": "TAMPA", "ZIPCODE": "33612", "PHONE": "975-7633", "FAX": "975-4812", "GlobalID": "26237bc7-e86e-489a-8490-af18abfdb3cd" }, "geometry": { "type": "Point", "coordinates": [ -82.464005011060692, 28.042124908563203 ] } },
{ "type": "Feature", "properties": { "OBJECTID": 64, "GRADE": "K-5", "TYPE": "E", "MAGNET": null, "NAME": "FOSTER ELEMENTARY", "ADDR": "2011 E Sligh Ave", "CITY": "TAMPA", "ZIPCODE": "33610", "PHONE": "276-5573", "FAX": "276-5731", "GlobalID": "bf468c50-3e7b-4317-97b5-118ce213de39" }, "geometry": { "type": "Point", "coordinates": [ -82.436151536938141, 28.007464634372916 ] } },
{ "type": "Feature", "properties": { "OBJECTID": 65, "GRADE": "6-8", "TYPE": "M", "MAGNET": null, "NAME": "FRANKLIN MIDDLE", "ADDR": "3915 E 21st Ave", "CITY": "TAMPA", "ZIPCODE": "33605", "PHONE": "744-8108", "FAX": "744-8579", "GlobalID": "018fcdba-5137-44b0-912b-05dc7e6350c4" }, "geometry": { "type": "Point", "coordinates": [ -82.416236090420867, 27.969859048723578 ] } },
{ "type": "Feature", "properties": { "OBJECTID": 66, "GRADE": "9-12", "TYPE": "H", "MAGNET": null, "NAME": "FREEDOM HIGH", "ADDR": "17400 Commerce Park Blvd", "CITY": "TAMPA", "ZIPCODE": "33647", "PHONE": "558-1185", "FAX": "558-1189", "GlobalID": "ce131f1c-422a-450f-ae7e-3eb9de846657" }, "geometry": { "type": "Point", "coordinates": [ -82.383643086843023, 28.133776151404458 ] } },
{ "type": "Feature", "properties": { "OBJECTID": 71, "GRADE": "K-5", "TYPE": "E", "MAGNET": null, "NAME": "JOHN GORRIE ELEMENTARY", "ADDR": "705 W De Leon St", "CITY": "TAMPA", "ZIPCODE": "33606", "PHONE": "276-5673", "FAX": "276-5880", "GlobalID": "e6abc5f9-c1ad-4c65-ac60-c983c90610e2" }, "geometry": { "type": "Point", "coordinates": [ -82.46790332306422, 27.939160741760805 ] } },
{ "type": "Feature", "properties": { "OBJECTID": 72, "GRADE": "K-5", "TYPE": "E", "MAGNET": null, "NAME": "HENRY W. GRADY ELEMENTARY", "ADDR": "3910 Morrison Ave", "CITY": "TAMPA", "ZIPCODE": "33629", "PHONE": "872-5325", "FAX": "356-1476", "GlobalID": "19bfd9d2-9d27-4d90-8044-a6cd6592f8e5" }, "geometry": { "type": "Point", "coordinates": [ -82.508965022468203, 27.933065073836797 ] } },
{ "type": "Feature", "properties": { "OBJECTID": 73, "GRADE": "K-5", "TYPE": "E", "MAGNET": null, "NAME": "GRAHAM ELEMENTARY", "ADDR": "2915 Massachusetts Ave", "CITY": "TAMPA", "ZIPCODE": "33602", "PHONE": "276-5408", "FAX": "276-5534", "GlobalID": "a22d7b59-74fc-46c1-9010-422dad412f53" }, "geometry": { "type": "Point", "coordinates": [ -82.46540848124917, 27.969936788553689 ] } },
{ "type": "Feature", "properties": { "OBJECTID": 75, "GRADE": "K-5", "TYPE": "E", "MAGNET": null, "NAME": "HERITAGE ELEMENTARY", "ADDR": "18201 East Meadows Rd", "CITY": "TAMPA", "ZIPCODE": "33647", "PHONE": "740-4580", "FAX": "740-4584", "GlobalID": "0d4003c3-dc8d-4ade-8c6d-a8ffacec154d" }, "geometry": { "type": "Point", "coordinates": [ -82.285599787574213, 28.145990978623388 ] } },
{ "type": "Feature", "properties": { "OBJECTID": 77, "GRADE": "9-12", "TYPE": "H", "MAGNET": "M", "NAME": "HILLSBOROUGH HIGH", "ADDR": "5000 Central Ave", "CITY": "TAMPA", "ZIPCODE": "33603", "PHONE": "276-5620", "FAX": "276-5629", "GlobalID": "db8af258-39c9-4050-b02e-655bf3540dda" }, "geometry": { "type": "Point", "coordinates": [ -82.456152242928908, 27.991049916606979 ] } },
{ "type": "Feature", "properties": { "OBJECTID": 78, "GRADE": "K-5", "TYPE": "E", "MAGNET": null, "NAME": "HUNTERS GREEN ELEMENTARY", "ADDR": "9202 Highland Oak Dr", "CITY": "TAMPA", "ZIPCODE": "33647", "PHONE": "973-7394", "FAX": "631-4525", "GlobalID": "0d51b58b-6b7e-4c9c-a033-39b271c9e4d9" }, "geometry": { "type": "Point", "coordinates": [ -82.329891586988964, 28.140912781704671 ] } },
{ "type": "Feature", "properties": { "OBJECTID": 81, "GRADE": "K-8", "TYPE": "E", "MAGNET": null, "NAME": "WILLIAMS MIDDLE", "ADDR": "5020 N 47th St", "CITY": "TAMPA", "ZIPCODE": "33610", "PHONE": "740-4800", "FAX": "740-4804", "GlobalID": "e62319af-f3c6-4a53-b9a0-e148658c3c84" }, "geometry": { "type": "Point", "coordinates": [ -82.410205244328424, 27.991026672056872 ] } },
{ "type": "Feature", "properties": { "OBJECTID": 82, "GRADE": "9-12", "TYPE": "H", "MAGNET": null, "NAME": "THOMAS JEFFERSON HIGH", "ADDR": "4401 W Cypress St", "CITY": "TAMPA", "ZIPCODE": "33607", "PHONE": "872-5241", "FAX": "872-5250", "GlobalID": "04d72e4d-b235-49e4-b7f7-4b11e2e8a558" }, "geometry": { "type": "Point", "coordinates": [ -82.519402628814632, 27.953411998600085 ] } },
{ "type": "Feature", "properties": { "OBJECTID": 84, "GRADE": "K-5", "TYPE": "E", "MAGNET": null, "NAME": "JUST ELEMENTARY", "ADDR": "1125 W Spruce St", "CITY": "TAMPA", "ZIPCODE": "33607", "PHONE": "276-5708", "FAX": "272-2379", "GlobalID": "6675acbf-df64-4141-a39c-63f86953d5a6" }, "geometry": { "type": "Point", "coordinates": [ -82.473042852843406, 27.959767163826132 ] } },
{ "type": "Feature", "properties": { "OBJECTID": 90, "GRADE": "K-5", "TYPE": "E", "MAGNET": null, "NAME": "LANIER ELEMENTARY", "ADDR": "4716 W Montgomery Ave", "CITY": "TAMPA", "ZIPCODE": "33616", "PHONE": "272-3060", "FAX": "272-3065", "GlobalID": "fdda0426-4516-455a-bb0f-1f5b6aa17ee9" }, "geometry": { "type": "Point", "coordinates": [ -82.522478136077595, 27.876884408247626 ] } },
{ "type": "Feature", "properties": { "OBJECTID": 91, "GRADE": "K-5", "TYPE": "E", "MAGNET": "M", "NAME": "ROBERT E. LEE ELEMENTARY", "ADDR": "305 E Columbus Dr", "CITY": "TAMPA", "ZIPCODE": "33602", "PHONE": "276-5405", "FAX": "272-3228", "GlobalID": "3add7886-d14d-483a-aad8-e388c4b14b11" }, "geometry": { "type": "Point", "coordinates": [ -82.457374652908427, 27.966526974021367 ] } },
{ "type": "Feature", "properties": { "OBJECTID": 95, "GRADE": "6-8", "TYPE": "M", "MAGNET": null, "NAME": "LIBERTY MIDDLE", "ADDR": "17400 Commerce Park Blvd", "CITY": "TAMPA", "ZIPCODE": "33647", "PHONE": "558-1180", "FAX": "558-1184", "GlobalID": "557db07e-c972-4de4-adc3-8c0da91993f6" }, "geometry": { "type": "Point", "coordinates": [ -82.384079936314791, 28.134665306311774 ] } },
{ "type": "Feature", "properties": { "OBJECTID": 99, "GRADE": "K-5", "TYPE": "E", "MAGNET": "M", "NAME": "LOCKHART ELEMENTARY MAGNET", "ADDR": "3719 N 17th St", "CITY": "TAMPA", "ZIPCODE": "33610", "PHONE": "276-5727", "FAX": "233-3565", "GlobalID": "5948095a-57a9-4dd8-8564-df1da5f6f0a5" }, "geometry": { "type": "Point", "coordinates": [ -82.439616218474498, 27.979106142041388 ] } },
{ "type": "Feature", "properties": { "OBJECTID": 100, "GRADE": "K-5", "TYPE": "E", "MAGNET": "M", "NAME": "LOMAX ELEMENTARY", "ADDR": "4207 N 26th St", "CITY": "TAMPA", "ZIPCODE": "33610", "PHONE": "276-5569", "FAX": "272-2803", "GlobalID": "4c475560-d270-40fc-9536-27ff37925f35" }, "geometry": { "type": "Point", "coordinates": [ -82.430389220275302, 27.983078096112088 ] } },
{ "type": "Feature", "properties": { "OBJECTID": 104, "GRADE": "K-5", "TYPE": "E", "MAGNET": null, "NAME": "DALE MABRY ELEMENTARY", "ADDR": "4201 W Estrella St", "CITY": "TAMPA", "ZIPCODE": "33629", "PHONE": "872-5364", "FAX": "554-2252", "GlobalID": "f08643af-4949-4231-abc1-8c2c5aa0ee6f" }, "geometry": { "type": "Point", "coordinates": [ -82.515013872215491, 27.929262579570764 ] } },
{ "type": "Feature", "properties": { "OBJECTID": 105, "GRADE": "K-5", "TYPE": "E", "MAGNET": "M", "NAME": "MAC FARLANE ELEMENTARY", "ADDR": "1721 Macdill Ave", "CITY": "TAMPA", "ZIPCODE": "33607", "PHONE": "356-1760", "FAX": "356-1764", "GlobalID": "2bf1422b-af4c-49f8-87ec-973479eccb29" }, "geometry": { "type": "Point", "coordinates": [ -82.492684201500623, 27.958098668432775 ] } },
{ "type": "Feature", "properties": { "OBJECTID": 106, "GRADE": "6-8", "TYPE": "M", "MAGNET": null, "NAME": "MADISON MIDDLE", "ADDR": "4444 W Bay Vista Ave", "CITY": "TAMPA", "ZIPCODE": "33611", "PHONE": "272-3050", "FAX": "233-2796", "GlobalID": "70ba5665-c1aa-47be-b3b9-1dd8c6475bec" }, "geometry": { "type": "Point", "coordinates": [ -82.520809323140824, 27.906383984582504 ] } },
{ "type": "Feature", "properties": { "OBJECTID": 115, "GRADE": "6-8", "TYPE": "M", "MAGNET": null, "NAME": "MEMORIAL MIDDLE", "ADDR": "4702 N Central Ave", "CITY": "TAMPA", "ZIPCODE": "33603", "PHONE": "872-5230", "FAX": "872-5238", "GlobalID": "dcdb2b69-5b4b-4612-80f5-5e11395a7b08" }, "geometry": { "type": "Point", "coordinates": [ -82.455974104422836, 27.988305318475497 ] } },
{ "type": "Feature", "properties": { "OBJECTID": 116, "GRADE": "K-5", "TYPE": "E", "MAGNET": null, "NAME": "MENDENHALL ELEMENTARY", "ADDR": "5202 N Mendenhall Dr", "CITY": "TAMPA", "ZIPCODE": "33603", "PHONE": "872-5221", "FAX": "872-5224", "GlobalID": "19a9baec-2b0b-416e-bf6e-6fef104112de" }, "geometry": { "type": "Point", "coordinates": [ -82.479256118173808, 27.993490828828257 ] } },
{ "type": "Feature", "properties": { "OBJECTID": 117, "GRADE": "9-12", "TYPE": "H", "MAGNET": "M", "NAME": "MIDDLETON HIGH", "ADDR": "4801 N 22nd St", "CITY": "TAMPA", "ZIPCODE": "33610", "PHONE": "233-3360", "FAX": "233-3364", "GlobalID": "5ad927dc-75f1-479e-915b-8cc606a983ec" }, "geometry": { "type": "Point", "coordinates": [ -82.433465188260513, 27.989635428073836 ] } },
{ "type": "Feature", "properties": { "OBJECTID": 120, "GRADE": "K-5", "TYPE": "E", "MAGNET": null, "NAME": "MITCHELL ELEMENTARY", "ADDR": "205 Bungalow Park Ave", "CITY": "TAMPA", "ZIPCODE": "33609", "PHONE": "872-5216", "FAX": "356-1662", "GlobalID": "76e2dc8f-5a86-4039-a4db-ff55bcbf149a" }, "geometry": { "type": "Point", "coordinates": [ -82.490632047875692, 27.942956050716941 ] } },
{ "type": "Feature", "properties": { "OBJECTID": 121, "GRADE": "6-8", "TYPE": "M", "MAGNET": null, "NAME": "MONROE MIDDLE", "ADDR": "4716 W Montgomery Ave", "CITY": "TAMPA", "ZIPCODE": "33616", "PHONE": "272-3020", "FAX": "272-3027", "GlobalID": "b3132e3d-298b-4c6e-aa38-ee9ebbeee896" }, "geometry": { "type": "Point", "coordinates": [ -82.524225114746812, 27.876870565864738 ] } },
{ "type": "Feature", "properties": { "OBJECTID": 129, "GRADE": "K-5", "TYPE": "E", "MAGNET": null, "NAME": "OAK GROVE ELEMENTARY", "ADDR": "6315 N Armenia Ave", "CITY": "TAMPA", "ZIPCODE": "33604", "PHONE": "356-1532", "FAX": "356-1536", "GlobalID": "d90b2aa5-3644-4cdd-8ba2-2178edcb4d32" }, "geometry": { "type": "Point", "coordinates": [ -82.483221414526668, 28.004550824112382 ] } },
{ "type": "Feature", "properties": { "OBJECTID": 130, "GRADE": "K-5", "TYPE": "E", "MAGNET": null, "NAME": "OAK PARK ELEMENTARY", "ADDR": "2716 N 46th St", "CITY": "TAMPA", "ZIPCODE": "33605", "PHONE": "740-4640", "FAX": "740-4653", "GlobalID": "988ce440-61f1-4f4c-bc6c-5485059025ce" }, "geometry": { "type": "Point", "coordinates": [ -82.406977912763523, 27.967888666303125 ] } },
{ "type": "Feature", "properties": { "OBJECTID": 131, "GRADE": "6-8", "TYPE": "M", "MAGNET": null, "NAME": "ORANGE GROVE MIDDLE", "ADDR": "3415 N 16th St", "CITY": "TAMPA", "ZIPCODE": "33605", "PHONE": "276-5717", "FAX": "276-5857", "GlobalID": "ca660b53-3b0e-4db3-860d-aaeb5b68ab3e" }, "geometry": { "type": "Point", "coordinates": [ -82.4403979783648, 27.975011259447349 ] } },
{ "type": "Feature", "properties": { "OBJECTID": 135, "GRADE": "K-5", "TYPE": "E", "MAGNET": null, "NAME": "PIZZO ELEMENTARY", "ADDR": "11701 Bull Run Dr", "CITY": "TAMPA", "ZIPCODE": "33617", "PHONE": "987-6500", "FAX": "987-6516", "GlobalID": "03897725-a85d-4a17-b68c-b0a732206268" }, "geometry": { "type": "Point", "coordinates": [ -82.404442482407561, 28.055654123458979 ] } },
{ "type": "Feature", "properties": { "OBJECTID": 136, "GRADE": "9-12", "TYPE": "H", "MAGNET": null, "NAME": "PLANT HIGH", "ADDR": "2415 S Himes Ave", "CITY": "TAMPA", "ZIPCODE": "33629", "PHONE": "272-3033", "FAX": "272-0624", "GlobalID": "694712d0-0722-441b-89b5-32ff7395bbd0" }, "geometry": { "type": "Point", "coordinates": [ -82.502639818325491, 27.923708370459845 ] } },
{ "type": "Feature", "properties": { "OBJECTID": 138, "GRADE": "K-5", "TYPE": "E", "MAGNET": null, "NAME": "POTTER ELEMENTARY", "ADDR": "3224 E Cayuga St", "CITY": "TAMPA", "ZIPCODE": "33610", "PHONE": "276-5564", "FAX": "233-3693", "GlobalID": "3e010170-ccc3-43d8-b5df-f06f1fb476a4" }, "geometry": { "type": "Point", "coordinates": [ -82.423745734522825, 27.986926717946748 ] } },
{ "type": "Feature", "properties": { "OBJECTID": 141, "GRADE": "K-5", "TYPE": "E", "MAGNET": null, "NAME": "RAMPELLO DOWNTOWN ELEMENTARY", "ADDR": "802 E Washington St", "CITY": "TAMPA", "ZIPCODE": "33602", "PHONE": "233-2333", "FAX": "233-2337", "GlobalID": "2956d7dc-0090-4b6f-a2f0-9e14e44910c0" }, "geometry": { "type": "Point", "coordinates": [ -82.452757707467214, 27.948026136560685 ] } },
{ "type": "Feature", "properties": { "OBJECTID": 147, "GRADE": "9-12", "TYPE": "H", "MAGNET": null, "NAME": "T.R. ROBINSON HIGH", "ADDR": "6311 S Lois Ave", "CITY": "TAMPA", "ZIPCODE": "33616", "PHONE": "272-3006", "FAX": "272-3014", "GlobalID": "fa433e6f-da1c-48b9-8967-7925fbd79fa1" }, "geometry": { "type": "Point", "coordinates": [ -82.515211931326121, 27.874438695806489 ] } },
{ "type": "Feature", "properties": { "OBJECTID": 150, "GRADE": "K-8", "TYPE": "E", "MAGNET": null, "NAME": "ROLAND PARK ELEMENTARY", "ADDR": "1510 N Manhattan Ave", "CITY": "TAMPA", "ZIPCODE": "33607", "PHONE": "872-5212", "FAX": "673-4388", "GlobalID": "60ac2713-d15d-49d2-a050-6138229a4da4" }, "geometry": { "type": "Point", "coordinates": [ -82.518738991415631, 27.956478276905763 ] } },
{ "type": "Feature", "properties": { "OBJECTID": 151, "GRADE": "K-5", "TYPE": "E", "MAGNET": null, "NAME": "ROOSEVELT ELEMENTARY", "ADDR": "3205 S Ferdinand Ave", "CITY": "TAMPA", "ZIPCODE": "33629", "PHONE": "272-3090", "FAX": "233-3577", "GlobalID": "158f9e5f-4e4c-442c-98bb-eb365887e0c2" }, "geometry": { "type": "Point", "coordinates": [ -82.497675621736519, 27.916645544860348 ] } },
{ "type": "Feature", "properties": { "OBJECTID": 156, "GRADE": "K-5", "TYPE": "E", "MAGNET": null, "NAME": "SEMINOLE HEIGHTS ELEMENTARY", "ADDR": "6201 N Central Ave", "CITY": "TAMPA", "ZIPCODE": "33604", "PHONE": "276-5556", "FAX": "272-2279", "GlobalID": "97c096e8-6a66-4a9b-b442-64bc253a8baa" }, "geometry": { "type": "Point", "coordinates": [ -82.454874140993425, 28.00387023363912 ] } },
{ "type": "Feature", "properties": { "OBJECTID": 158, "GRADE": "K-5", "TYPE": "E", "MAGNET": null, "NAME": "SHAW ELEMENTARY", "ADDR": "11311 N 15th St", "CITY": "TAMPA", "ZIPCODE": "33612", "PHONE": "975-7366", "FAX": "558-5025", "GlobalID": "3ef74751-b73c-47c9-a68d-00e6b44cc36a" }, "geometry": { "type": "Point", "coordinates": [ -82.441963880493049, 28.051898979375778 ] } },
{ "type": "Feature", "properties": { "OBJECTID": 159, "GRADE": "K-5", "TYPE": "E", "MAGNET": null, "NAME": "SHEEHY ELEMENTARY", "ADDR": "6402 N 40th St", "CITY": "TAMPA", "ZIPCODE": "33610", "PHONE": "233-3800", "FAX": "233-3804", "GlobalID": "e3dda237-ec8b-43a3-8752-10ede7e2e87f" }, "geometry": { "type": "Point", "coordinates": [ -82.41437753536465, 28.005339932641203 ] } },
{ "type": "Feature", "properties": { "OBJECTID": 161, "GRADE": "K-5", "TYPE": "E", "MAGNET": "M", "NAME": "PHILIP SHORE ELEMENTARY", "ADDR": "1908 E 2nd Ave", "CITY": "TAMPA", "ZIPCODE": "33605", "PHONE": "276-5712", "FAX": "272-0426", "GlobalID": "42acad2c-3c44-4a60-a2d3-dfaf3cff6b05" }, "geometry": { "type": "Point", "coordinates": [ -82.437394710720696, 27.957236018042106 ] } },
{ "type": "Feature", "properties": { "OBJECTID": 163, "GRADE": "6-8", "TYPE": "M", "MAGNET": "M", "NAME": "SLIGH MIDDLE", "ADDR": "2011 E Sligh Ave", "CITY": "TAMPA", "ZIPCODE": "33610", "PHONE": "276-5596", "FAX": "276-5606", "GlobalID": "82e0f061-06f7-4254-a077-ec9102d93941" }, "geometry": { "type": "Point", "coordinates": [ -82.436361325616886, 28.009866657669299 ] } },
{ "type": "Feature", "properties": { "OBJECTID": 166, "GRADE": "6-8", "TYPE": "M", "MAGNET": "M", "NAME": "STEWART MIDDLE", "ADDR": "1125 W Spruce St", "CITY": "TAMPA", "ZIPCODE": "33607", "PHONE": "276-5691", "FAX": "276-5698", "GlobalID": "811738fd-0c58-43f3-b5ea-e01564c0a8c1" }, "geometry": { "type": "Point", "coordinates": [ -82.471346109891385, 27.959737378028994 ] } },
{ "type": "Feature", "properties": { "OBJECTID": 167, "GRADE": "K-5", "TYPE": "E", "MAGNET": null, "NAME": "SULPHUR SPRINGS ELEMENTARY", "ADDR": "8412 N 13th St", "CITY": "TAMPA", "ZIPCODE": "33604", "PHONE": "975-7305", "FAX": "975-7398", "GlobalID": "6790ac86-7e45-40a5-8526-ab562cb92e7d" }, "geometry": { "type": "Point", "coordinates": [ -82.446697251401247, 28.026194012356957 ] } },
{ "type": "Feature", "properties": { "OBJECTID": 170, "GRADE": "K-5", "TYPE": "E", "MAGNET": null, "NAME": "TAMPA BAY BOULEVARD ELEMENTARY", "ADDR": "3111 W Tampa Bay Blvd", "CITY": "TAMPA", "ZIPCODE": "33607", "PHONE": "872-5208", "FAX": "871-7586", "GlobalID": "9bbd72eb-4823-49ff-a621-56be8c4aed88" }, "geometry": { "type": "Point", "coordinates": [ -82.494269632258749, 27.974629394049277 ] } },
{ "type": "Feature", "properties": { "OBJECTID": 172, "GRADE": "K-5", "TYPE": "E", "MAGNET": null, "NAME": "TAMPA PALMS ELEMENTARY", "ADDR": "6100 Tampa Palms Blvd", "CITY": "TAMPA", "ZIPCODE": "33647", "PHONE": "975-7390", "FAX": "975-6654", "GlobalID": "816d0bcd-2551-4d6d-a703-aa6da92cb280" }, "geometry": { "type": "Point", "coordinates": [ -82.385767828858093, 28.09777121738988 ] } },
{ "type": "Feature", "properties": { "OBJECTID": 174, "GRADE": "K-5", "TYPE": "E", "MAGNET": null, "NAME": "MACDILL AFB - TINKER ELEMENTARY", "ADDR": "6000 N Commerce St", "CITY": "MACDILL", "ZIPCODE": "33621", "PHONE": "840-2043", "FAX": "233-3664", "GlobalID": "721e78c0-1ae3-4e65-9f8b-60407ea293ab" }, "geometry": { "type": "Point", "coordinates": [ -82.478272160263217, 27.846772683623414 ] } },
{ "type": "Feature", "properties": { "OBJECTID": 182, "GRADE": "6-8", "TYPE": "M", "MAGNET": null, "NAME": "VAN BUREN MIDDLE", "ADDR": "8715 N 22Nd St", "CITY": "TAMPA", "ZIPCODE": "33604", "PHONE": "975-7652", "FAX": "631-4312", "GlobalID": "c17ce83f-6c1f-4f98-b171-6b5e01253236" }, "geometry": { "type": "Point", "coordinates": [ -82.434175670166837, 28.030543669936716 ] } },
{ "type": "Feature", "properties": { "OBJECTID": 185, "GRADE": "K-5", "TYPE": "E", "MAGNET": null, "NAME": "B T WASHINGTON ELEMENTARY", "ADDR": "1407 Estelle St", "CITY": "TAMPA", "ZIPCODE": "33605", "PHONE": "233-3720", "FAX": "233-3724", "GlobalID": "d4cf86a1-2fcc-4860-8d0b-e5fb3ee16492" }, "geometry": { "type": "Point", "coordinates": [ -82.449671741817482, 27.958856099100544 ] } },
{ "type": "Feature", "properties": { "OBJECTID": 187, "GRADE": "K-5", "TYPE": "E", "MAGNET": null, "NAME": "WEST SHORE ELEMENTARY", "ADDR": "7110 S West Shore Blvd", "CITY": "TAMPA", "ZIPCODE": "33616", "PHONE": "272-3080", "FAX": "233-2443", "GlobalID": "e36d5a32-eee6-46e8-bfe5-839992b54590" }, "geometry": { "type": "Point", "coordinates": [ -82.526734362874791, 27.862266069253419 ] } },
{ "type": "Feature", "properties": { "OBJECTID": 188, "GRADE": "K-5", "TYPE": "E", "MAGNET": null, "NAME": "WEST TAMPA ELEMENTARY", "ADDR": "2700 Cherry St", "CITY": "TAMPA", "ZIPCODE": "33607", "PHONE": "872-5200", "FAX": "356-1452", "GlobalID": "e5290376-c007-4bb4-86d4-61c593eb1941" }, "geometry": { "type": "Point", "coordinates": [ -82.487892665181008, 27.961086381639657 ] } },
{ "type": "Feature", "properties": { "OBJECTID": 191, "GRADE": "6-8", "TYPE": "M", "MAGNET": "M", "NAME": "WILLIAMS MIDDLE", "ADDR": "5020 N 47th St", "CITY": "TAMPA", "ZIPCODE": "33610", "PHONE": "744-8600", "FAX": "744-8665", "GlobalID": "738ac376-5bc2-46f3-8778-0cc553962eb8" }, "geometry": { "type": "Point", "coordinates": [ -82.406662986095483, 27.991791167401104 ] } },
{ "type": "Feature", "properties": { "OBJECTID": 193, "GRADE": "6-8", "TYPE": "M", "MAGNET": null, "NAME": "WOODROW WILSON MIDDLE", "ADDR": "1005 W Swann Ave", "CITY": "TAMPA", "ZIPCODE": "33606", "PHONE": "276-5682", "FAX": "233-2540", "GlobalID": "c60ce7a4-c256-46f2-9747-b24e6d1d61c6" }, "geometry": { "type": "Point", "coordinates": [ -82.469917386525339, 27.937601866681089 ] } },
{ "type": "Feature", "properties": { "OBJECTID": 195, "GRADE": "K-5", "TYPE": "E", "MAGNET": null, "NAME": "WITTER ELEMENTARY", "ADDR": "10801 N 22nd St", "CITY": "TAMPA", "ZIPCODE": "33612", "PHONE": "975-7383", "FAX": "631-4447", "GlobalID": "dc615857-6f41-4cf6-86c5-5c1cd6e36d5f" }, "geometry": { "type": "Point", "coordinates": [ -82.43416836873989, 28.046676488767268 ] } },
{ "type": "Feature", "properties": { "OBJECTID": 198, "GRADE": "6-8", "TYPE": "M", "MAGNET": "M", "NAME": "YOUNG MIDDLE MAGNET", "ADDR": "1807 E Dr Martin Luther King Jr Blvd", "CITY": "TAMPA", "ZIPCODE": "33610", "PHONE": "276-5739", "FAX": "276-5893", "GlobalID": "50dab901-a509-4d02-aa36-31ac690f8589" }, "geometry": { "type": "Point", "coordinates": [ -82.438764271474469, 27.980680927855499 ] } },
{ "type": "Feature", "properties": { "OBJECTID": 205, "GRADE": "6-8", "TYPE": "M", "MAGNET": null, "NAME": "ROLAND PARK MIDDLE", "ADDR": "1510 North Manhattan Ave", "CITY": "Tampa", "ZIPCODE": "33607", "PHONE": "872-5212", "FAX": "673-4388", "GlobalID": "f392f5ec-0713-4de8-b018-46662e3f3963" }, "geometry": { "type": "Point", "coordinates": [ -82.518742577062241, 27.955906407414492 ] } },
{ "type": "Feature", "properties": { "OBJECTID": 206, "GRADE": "6-8", "TYPE": "M", "MAGNET": null, "NAME": "RAMPELLO MIDDLE", "ADDR": "802 E Washington St", "CITY": "TAMPA", "ZIPCODE": "33602", "PHONE": "233-2333", "FAX": "233-2337", "GlobalID": "56c6c17a-f0bf-4fce-a027-d274fea4e4a6" }, "geometry": { "type": "Point", "coordinates": [ -82.45210911207073, 27.948575135647459 ] } },
{ "type": "Feature", "properties": { "OBJECTID": 208, "GRADE": "K-5", "TYPE": "E", "MAGNET": null, "NAME": "KIMBELL ELEMENTARY", "ADDR": "8406 N 46th St", "CITY": "TAMPA", "ZIPCODE": "33617", "PHONE": "983-3900", "FAX": "983-3974", "GlobalID": "0a82e1a3-caba-4eff-88fa-ea5b67294895" }, "geometry": { "type": "Point", "coordinates": [ -82.410389353975575, 28.025933024827062 ] } },
{ "type": "Feature", "properties": { "OBJECTID": 212, "GRADE": "9-12", "TYPE": "H", "MAGNET": null, "NAME": "BROOK-DEVARTOLO HIGH", "ADDR": "10948 N Central Ave", "CITY": "TAMPA", "ZIPCODE": "33612", "PHONE": "971-5600", "FAX": "971-5656", "GlobalID": "746b1c50-eb0d-47e4-ba20-5ac544981ec5" }, "geometry": { "type": "Point", "coordinates": [ -82.455824916520612, 28.049418578351741 ] } },
{ "type": "Feature", "properties": { "OBJECTID": 216, "GRADE": "K-5", "TYPE": "E", "MAGNET": null, "NAME": "USF PATEL PARTNERSHIP ELEMENTARY", "ADDR": "4202 E Fowler Ave", "CITY": "TAMPA", "ZIPCODE": "33617", "PHONE": "983-3966", "FAX": "983-3987", "GlobalID": "9f233b92-a039-4e85-8d87-4ef4dd28c3ff" }, "geometry": { "type": "Point", "coordinates": [ -82.404738009335787, 28.056592318141071 ] } }
]
}
